{"type":"FeatureCollection","features":[{"type":"Feature","properties":{"lsgi_code":"G12010","lsg_key":"ambalavayal","lsg_label":"Ambalavayal","local_auth":"gram_panchayat"},"geometry":{"type":"Point","coordinates":[76.20563982619049,11.602726652380948]}},{"type":"Feature","properties":{"lsgi_code":"G12005","lsg_key":"edavaka","lsg_label":"Edavaka","local_auth":"gram_panchayat"},"geometry":{"type":"Point","coordinates":[75.98722492964824,11.776519813316586]}},{"type":"Feature","properties":{"lsgi_code":"M12051","lsg_key":"kalpetta","lsg_label":"Kalpetta","local_auth":"municipality"},"geometry":{"type":"Point","coordinates":[76.07778239642859,11.61274508035714]}},{"type":"Feature","properties":{"lsgi_code":"G12022","lsg_key":"kaniyambetta","lsg_label":"Kaniyambetta","local_auth":"gram_panchayat"},"geometry":{"type":"Point","coordinates":[76.10210094035088,11.697377950292399]}},{"type":"Feature","properties":{"lsgi_code":"G12018","lsg_key":"kottathara","lsg_label":"Kottathara","local_auth":"gram_panchayat"},"geometry":{"type":"Point","coordinates":[76.02848197719297,11.685725108070166]}},{"type":"Feature","properties":{"lsgi_code":"M12081","lsg_key":"mananthavady","lsg_label":"Mananthavady","local_auth":"municipality"},"geometry":{"type":"Point","coordinates":[76.01769123821343,11.812998349131517]}},{"type":"Feature","properties":{"lsgi_code":"G12011","lsg_key":"meenangadi","lsg_label":"Meenangadi","local_auth":"gram_panchayat"},"geometry":{"type":"Point","coordinates":[76.1703442327957,11.6712222032258]}},{"type":"Feature","properties":{"lsgi_code":"G12016","lsg_key":"meppadi","lsg_label":"Meppadi","local_auth":"gram_panchayat"},"geometry":{"type":"Point","coordinates":[76.13957881680003,11.528798334666671]}},{"type":"Feature","properties":{"lsgi_code":"G12025","lsg_key":"mullankolly","lsg_label":"Mullankolly","local_auth":"gram_panchayat"},"geometry":{"type":"Point","coordinates":[76.16423661926602,11.845831346788987]}},{"type":"Feature","properties":{"lsgi_code":"G12017","lsg_key":"mupainad","lsg_label":"Mupainad","local_auth":"gram_panchayat"},"geometry":{"type":"Point","coordinates":[76.19050033111107,11.543948530740748]}},{"type":"Feature","properties":{"lsgi_code":"G12019","lsg_key":"muttil","lsg_label":"Muttil","local_auth":"gram_panchayat"},"geometry":{"type":"Point","coordinates":[76.1285417059633,11.642940114220185]}},{"type":"Feature","properties":{"lsgi_code":"G12009","lsg_key":"nenmeni","lsg_label":"Nenmeni","local_auth":"gram_panchayat"},"geometry":{"type":"Point","coordinates":[76.26943911132072,11.61644560062894]}},{"type":"Feature","properties":{"lsgi_code":"G12008","lsg_key":"noolpuzha","lsg_label":"Noolpuzha","local_auth":"gram_panchayat"},"geometry":{"type":"Point","coordinates":[76.35079162749999,11.664689268214287]}},{"type":"Feature","properties":{"lsgi_code":"G12020","lsg_key":"padinharathara","lsg_label":"Padinharathara","local_auth":"gram_panchayat"},"geometry":{"type":"Point","coordinates":[75.95048667608694,11.675669518478262]}},{"type":"Feature","properties":{"lsgi_code":"G12021","lsg_key":"panamaram","lsg_label":"Panamaram","local_auth":"gram_panchayat"},"geometry":{"type":"Point","coordinates":[76.05556631329111,11.744223349367095]}},{"type":"Feature","properties":{"lsgi_code":"G12023","lsg_key":"poothadi","lsg_label":"Poothadi","local_auth":"gram_panchayat"},"geometry":{"type":"Point","coordinates":[76.17328308162546,11.735531478798592]}},{"type":"Feature","properties":{"lsgi_code":"G12014","lsg_key":"pozhuthana","lsg_label":"Pozhuthana","local_auth":"gram_panchayat"},"geometry":{"type":"Point","coordinates":[76.00230800507818,11.58714104179688]}},{"type":"Feature","properties":{"lsgi_code":"G12024","lsg_key":"pulpally","lsg_label":"Pulpally","local_auth":"gram_panchayat"},"geometry":{"type":"Point","coordinates":[76.14729625377774,11.80007673511111]}},{"type":"Feature","properties":{"lsgi_code":"M12082","lsg_key":"sulthan-bathery","lsg_label":"Sulthan Bathery","local_auth":"municipality"},"geometry":{"type":"Point","coordinates":[76.30179866096864,11.70281739629629]}},{"type":"Feature","properties":{"lsgi_code":"G12015","lsg_key":"thariode","lsg_label":"Thariode","local_auth":"gram_panchayat"},"geometry":{"type":"Point","coordinates":[75.96079850559435,11.628653088461535]}},{"type":"Feature","properties":{"lsgi_code":"G12006","lsg_key":"thavinhal","lsg_label":"Thavinhal","local_auth":"gram_panchayat"},"geometry":{"type":"Point","coordinates":[75.90748179439835,11.819841017012445]}},{"type":"Feature","properties":{"lsgi_code":"G12003","lsg_key":"thirunelly","lsg_label":"Thirunelly","local_auth":"gram_panchayat"},"geometry":{"type":"Point","coordinates":[76.01347395858589,11.878075864141412]}},{"type":"Feature","properties":{"lsgi_code":"G12004","lsg_key":"thondernad","lsg_label":"Thondernad","local_auth":"gram_panchayat"},"geometry":{"type":"Point","coordinates":[75.87125069572193,11.76168704705883]}},{"type":"Feature","properties":{"lsgi_code":"G12002","lsg_key":"vellamunda","lsg_label":"Vellamunda","local_auth":"gram_panchayat"},"geometry":{"type":"Point","coordinates":[75.9736051891026,11.72895806858974]}},{"type":"Feature","properties":{"lsgi_code":"G12012","lsg_key":"vengappally","lsg_label":"Vengappally","local_auth":"gram_panchayat"},"geometry":{"type":"Point","coordinates":[76.03969907909608,11.633471902259885]}},{"type":"Feature","properties":{"lsgi_code":"G12013","lsg_key":"vythiri","lsg_label":"Vythiri","local_auth":"gram_panchayat"},"geometry":{"type":"Point","coordinates":[76.04342791272727,11.547853604848482]}}]}